[{"alpha2":"AD","alpha3":"AND","code":"20","name":"Andorra","standard_name":"Andorra","latitude":"42.546245","longitude":"1.601554","aliases":""},{"alpha2":"AE","alpha3":"ARE","code":"784","name":"United Arab Emirates","standard_name":"United Arab Emirates","latitude":"23.424076","longitude":"53.847818","aliases":""},{"alpha2":"AF","alpha3":"AFG","code":"4","name":"Afghanistan","standard_name":"Afghanistan","latitude":"33.93911","longitude":"67.709953","aliases":""},{"alpha2":"AG","alpha3":"ATG","code":"28","name":"Antigua and Barbuda","standard_name":"Antigua and Barbuda","latitude":"17.060816","longitude":"-61.796428","aliases":""},{"alpha2":"AI","alpha3":"AIA","code":"660","name":"Anguilla","standard_name":"Anguilla","latitude":"18.220554","longitude":"-63.068615","aliases":""},{"alpha2":"AL","alpha3":"ALB","code":"8","name":"Albania","standard_name":"Albania","latitude":"41.153332","longitude":"20.168331","aliases":""},{"alpha2":"AM","alpha3":"ARM","code":"51","name":"Armenia","standard_name":"Armenia","latitude":"40.069099","longitude":"45.038189","aliases":""},{"alpha2":"AO","alpha3":"AGO","code":"24","name":"Angola","standard_name":"Angola","latitude":"-11.202692","longitude":"17.873887","aliases":""},{"alpha2":"AQ","alpha3":"ATA","code":"10","name":"Antarctica","standard_name":"Antarctica","latitude":"-75.250973","longitude":"-0.071389","aliases":""},{"alpha2":"AR","alpha3":"ARG","code":"32","name":"Argentina","standard_name":"Argentina","latitude":"-38.416097","longitude":"-63.616672","aliases":""},{"alpha2":"AS","alpha3":"ASM","code":"16","name":"American Samoa","standard_name":"American Samoa","latitude":"-14.270972","longitude":"-170.132217","aliases":""},{"alpha2":"AT","alpha3":"AUT","code":"40","name":"Austria","standard_name":"Austria","latitude":"47.516231","longitude":"14.550072","aliases":""},{"alpha2":"AU","alpha3":"AUS","code":"36","name":"Australia","standard_name":"Australia","latitude":"-25.274398","longitude":"133.775136","aliases":""},{"alpha2":"AW","alpha3":"ABW","code":"533","name":"Aruba","standard_name":"Aruba","latitude":"12.52111","longitude":"-69.968338","aliases":""},{"alpha2":"AX","alpha3":"ALA","code":"248","name":"Aland Islands","standard_name":"Aland Islands","latitude":"60.178524","longitude":"19.9156094","aliases":""},{"alpha2":"AZ","alpha3":"AZE","code":"31","name":"Azerbaijan","standard_name":"Azerbaijan","latitude":"40.143105","longitude":"47.576927","aliases":""},{"alpha2":"BA","alpha3":"BIH","code":"70","name":"Bosnia and Herzegovina","standard_name":"Bosnia and Herzegovina","latitude":"43.915886","longitude":"17.679076","aliases":""},{"alpha2":"BB","alpha3":"BRB","code":"52","name":"Barbados","standard_name":"Barbados","latitude":"13.193887","longitude":"-59.543198","aliases":""},{"alpha2":"BD","alpha3":"BGD","code":"50","name":"Bangladesh","standard_name":"Bangladesh","latitude":"23.684994","longitude":"90.356331","aliases":""},{"alpha2":"BE","alpha3":"BEL","code":"56","name":"Belgium","standard_name":"Belgium","latitude":"50.503887","longitude":"4.469936","aliases":""},{"alpha2":"BF","alpha3":"BFA","code":"854","name":"Burkina Faso","standard_name":"Burkina Faso","latitude":"12.238333","longitude":"-1.561593","aliases":""},{"alpha2":"BG","alpha3":"BGR","code":"100","name":"Bulgaria","standard_name":"Bulgaria","latitude":"42.733883","longitude":"25.48583","aliases":""},{"alpha2":"BH","alpha3":"BHR","code":"48","name":"Bahrain","standard_name":"Bahrain","latitude":"25.930414","longitude":"50.637772","aliases":""},{"alpha2":"BI","alpha3":"BDI","code":"108","name":"Burundi","standard_name":"Burundi","latitude":"-3.373056","longitude":"29.918886","aliases":""},{"alpha2":"BJ","alpha3":"BEN","code":"204","name":"Benin","standard_name":"Benin","latitude":"9.30769","longitude":"2.315834","aliases":""},{"alpha2":"BL","alpha3":"BLM","code":"652","name":"Saint Barthelemy","standard_name":"Saint Barthélemy","latitude":"17.8999996","longitude":"-62.8333321","aliases":"St.Barts"},{"alpha2":"BM","alpha3":"BMU","code":"60","name":"Bermuda","standard_name":"Bermuda","latitude":"32.321384","longitude":"-64.75737","aliases":""},{"alpha2":"BN","alpha3":"BRN","code":"96","name":"Brunei","standard_name":"Brunei Darussalam","latitude":"4.535277","longitude":"114.727669","aliases":""},{"alpha2":"BO","alpha3":"BOL","code":"68","name":"Bolivia","standard_name":"Bolivia (Plurinational State of)","latitude":"-16.290154","longitude":"-63.588653","aliases":""},{"alpha2":"BQ","alpha3":"BES","code":"535","name":"Bonaire, Sint Eustatius and Saba","standard_name":"Bonaire, Sint Eustatius and Saba","latitude":"12.1783609","longitude":"-68.238533","aliases":"Bonaire Saint Eustatius and Saba"},{"alpha2":"BR","alpha3":"BRA","code":"76","name":"Brazil","standard_name":"Brazil","latitude":"-14.235004","longitude":"-51.92528","aliases":""},{"alpha2":"BS","alpha3":"BHS","code":"44","name":"Bahamas","standard_name":"Bahamas","latitude":"25.03428","longitude":"-77.39628","aliases":""},{"alpha2":"BT","alpha3":"BTN","code":"64","name":"Bhutan","standard_name":"Bhutan","latitude":"27.514162","longitude":"90.433601","aliases":""},{"alpha2":"BV","alpha3":"BVT","code":"74","name":"Bouvet Island","standard_name":"Bouvet Island","latitude":"-54.423199","longitude":"3.413194","aliases":""},{"alpha2":"BW","alpha3":"BWA","code":"72","name":"Botswana","standard_name":"Botswana","latitude":"-22.328474","longitude":"24.684866","aliases":""},{"alpha2":"BY","alpha3":"BLR","code":"112","name":"Belarus","standard_name":"Belarus","latitude":"53.709807","longitude":"27.953389","aliases":""},{"alpha2":"BZ","alpha3":"BLZ","code":"84","name":"Belize","standard_name":"Belize","latitude":"17.189877","longitude":"-88.49765","aliases":""},{"alpha2":"CA","alpha3":"CAN","code":"124","name":"Canada","standard_name":"Canada","latitude":"56.130366","longitude":"-106.346771","aliases":""},{"alpha2":"CC","alpha3":"CCK","code":"166","name":"Cocos Islands","standard_name":"Cocos (Keeling) Islands","latitude":"-12.164165","longitude":"96.870956","aliases":"Cocos (Keeling) Islands"},{"alpha2":"CD","alpha3":"COD","code":"180","name":"Democratic Republic of the Congo","standard_name":"Congo (the Democratic Republic of the)","latitude":"-4.038333","longitude":"21.758664","aliases":"DR Congo;Republic of the Congo"},{"alpha2":"CF","alpha3":"CAF","code":"140","name":"Central African Republic","standard_name":"Central African Republic","latitude":"6.611111","longitude":"20.939444","aliases":""},{"alpha2":"CG","alpha3":"COG","code":"178","name":"Congo","standard_name":"Congo","latitude":"-0.228021","longitude":"15.827659","aliases":""},{"alpha2":"CH","alpha3":"CHE","code":"756","name":"Switzerland","standard_name":"Switzerland","latitude":"46.818188","longitude":"8.227512","aliases":""},{"alpha2":"CI","alpha3":"CIV","code":"384","name":"Ivory Coast","standard_name":"Côte d'Ivoire","latitude":"7.539989","longitude":"-5.54708","aliases":"Republic of Côte d'Ivoire"},{"alpha2":"CK","alpha3":"COK","code":"184","name":"Cook Islands","standard_name":"Cook Islands","latitude":"-21.236736","longitude":"-159.777671","aliases":""},{"alpha2":"CL","alpha3":"CHL","code":"152","name":"Chile","standard_name":"Chile","latitude":"-35.675147","longitude":"-71.542969","aliases":""},{"alpha2":"CM","alpha3":"CMR","code":"120","name":"Cameroon","standard_name":"Cameroon","latitude":"7.369722","longitude":"12.354722","aliases":""},{"alpha2":"CN","alpha3":"CHN","code":"156","name":"China","standard_name":"China","latitude":"35.86166","longitude":"104.195397","aliases":""},{"alpha2":"CO","alpha3":"COL","code":"170","name":"Colombia","standard_name":"Colombia","latitude":"4.570868","longitude":"-74.297333","aliases":""},{"alpha2":"CR","alpha3":"CRI","code":"188","name":"Costa Rica","standard_name":"Costa Rica","latitude":"9.748917","longitude":"-83.753428","aliases":""},{"alpha2":"CU","alpha3":"CUB","code":"192","name":"Cuba","standard_name":"Cuba","latitude":"21.521757","longitude":"-77.781167","aliases":""},{"alpha2":"CV","alpha3":"CPV","code":"132","name":"Cape Verde","standard_name":"Cabo Verde","latitude":"16.002082","longitude":"-24.013197","aliases":""},{"alpha2":"CW","alpha3":"CUW","code":"531","name":"Curacao","standard_name":"Curaçao","latitude":"12.2135221","longitude":"-68.9495816","aliases":""},{"alpha2":"CX","alpha3":"CXR","code":"162","name":"Christmas Island","standard_name":"Christmas Island","latitude":"-10.447525","longitude":"105.690449","aliases":""},{"alpha2":"CY","alpha3":"CYP","code":"196","name":"Cyprus","standard_name":"Cyprus","latitude":"35.126413","longitude":"33.429859","aliases":""},{"alpha2":"CZ","alpha3":"CZE","code":"203","name":"Czech Republic","standard_name":"Czechia","latitude":"49.817492","longitude":"15.472962","aliases":""},{"alpha2":"DE","alpha3":"DEU","code":"276","name":"Germany","standard_name":"Germany","latitude":"51.165691","longitude":"10.451526","aliases":""},{"alpha2":"DJ","alpha3":"DJI","code":"262","name":"Djibouti","standard_name":"Djibouti","latitude":"11.825138","longitude":"42.590275","aliases":""},{"alpha2":"DK","alpha3":"DNK","code":"208","name":"Denmark","standard_name":"Denmark","latitude":"56.26392","longitude":"9.501785","aliases":""},{"alpha2":"DM","alpha3":"DMA","code":"212","name":"Dominica","standard_name":"Dominica","latitude":"15.414999","longitude":"-61.370976","aliases":""},{"alpha2":"DO","alpha3":"DOM","code":"214","name":"Dominican Republic","standard_name":"Dominican Republic","latitude":"18.735693","longitude":"-70.162651","aliases":""},{"alpha2":"DZ","alpha3":"DZA","code":"12","name":"Algeria","standard_name":"Algeria","latitude":"28.033886","longitude":"1.659626","aliases":""},{"alpha2":"EC","alpha3":"ECU","code":"218","name":"Ecuador","standard_name":"Ecuador","latitude":"-1.831239","longitude":"-78.183406","aliases":""},{"alpha2":"EE","alpha3":"EST","code":"233","name":"Estonia","standard_name":"Estonia","latitude":"58.595272","longitude":"25.013607","aliases":""},{"alpha2":"EG","alpha3":"EGY","code":"818","name":"Egypt","standard_name":"Egypt","latitude":"26.820553","longitude":"30.802498","aliases":""},{"alpha2":"EH","alpha3":"ESH","code":"732","name":"Western Sahara","standard_name":"Western Sahara","latitude":"24.215527","longitude":"-12.885834","aliases":""},{"alpha2":"ER","alpha3":"ERI","code":"232","name":"Eritrea","standard_name":"Eritrea","latitude":"15.179384","longitude":"39.782334","aliases":""},{"alpha2":"ES","alpha3":"ESP","code":"724","name":"Spain","standard_name":"Spain","latitude":"40.463667","longitude":"-3.74922","aliases":""},{"alpha2":"ET","alpha3":"ETH","code":"231","name":"Ethiopia","standard_name":"Ethiopia","latitude":"9.145","longitude":"40.489673","aliases":""},{"alpha2":"FI","alpha3":"FIN","code":"246","name":"Finland","standard_name":"Finland","latitude":"61.92411","longitude":"25.748151","aliases":""},{"alpha2":"FJ","alpha3":"FJI","code":"242","name":"Fiji","standard_name":"Fiji","latitude":"-16.578193","longitude":"179.414413","aliases":""},{"alpha2":"FK","alpha3":"FLK","code":"238","name":"Falkland Islands","standard_name":"Falkland Islands  [Malvinas]","latitude":"-51.796253","longitude":"-59.523613","aliases":"Islas Malvinas, Falkland Islands (Islas Malvinas)"},{"alpha2":"FM","alpha3":"FSM","code":"583","name":"Micronesia","standard_name":"Micronesia (Federated States of)","latitude":"7.425554","longitude":"150.550812","aliases":"Federated States of Micronesia"},{"alpha2":"FO","alpha3":"FRO","code":"234","name":"Faroe Islands","standard_name":"Faroe Islands","latitude":"61.892635","longitude":"-6.911806","aliases":""},{"alpha2":"FR","alpha3":"FRA","code":"250","name":"France","standard_name":"France","latitude":"46.227638","longitude":"2.213749","aliases":""},{"alpha2":"GA","alpha3":"GAB","code":"266","name":"Gabon","standard_name":"Gabon","latitude":"-0.803689","longitude":"11.609444","aliases":""},{"alpha2":"GB","alpha3":"GBR","code":"826","name":"United Kingdom","standard_name":"United Kingdom","latitude":"55.378051","longitude":"-3.435973","aliases":"United Kingdom of Great Britain and Northern Ireland"},{"alpha2":"GD","alpha3":"GRD","code":"308","name":"Grenada","standard_name":"Grenada","latitude":"12.262776","longitude":"-61.604171","aliases":""},{"alpha2":"GE","alpha3":"GEO","code":"268","name":"Georgia","standard_name":"Georgia","latitude":"42.315407","longitude":"43.356892","aliases":""},{"alpha2":"GF","alpha3":"GUF","code":"254","name":"French Guiana","standard_name":"French Guiana","latitude":"3.933889","longitude":"-53.125782","aliases":""},{"alpha2":"GG","alpha3":"GGY","code":"831","name":"Guernsey","standard_name":"Guernsey","latitude":"49.465691","longitude":"-2.585278","aliases":""},{"alpha2":"GH","alpha3":"GHA","code":"288","name":"Ghana","standard_name":"Ghana","latitude":"7.946527","longitude":"-1.023194","aliases":""},{"alpha2":"GI","alpha3":"GIB","code":"292","name":"Gibraltar","standard_name":"Gibraltar","latitude":"36.137741","longitude":"-5.345374","aliases":""},{"alpha2":"GL","alpha3":"GRL","code":"304","name":"Greenland","standard_name":"Greenland","latitude":"71.706936","longitude":"-42.604303","aliases":""},{"alpha2":"GM","alpha3":"GMB","code":"270","name":"Gambia","standard_name":"Gambia","latitude":"13.443182","longitude":"-15.310139","aliases":""},{"alpha2":"GN","alpha3":"GIN","code":"324","name":"Guinea","standard_name":"Guinea","latitude":"9.945587","longitude":"-9.696645","aliases":""},{"alpha2":"GP","alpha3":"GLP","code":"312","name":"Guadeloupe","standard_name":"Guadeloupe","latitude":"16.995971","longitude":"-62.067641","aliases":""},{"alpha2":"GQ","alpha3":"GNQ","code":"226","name":"Equatorial Guinea","standard_name":"Equatorial Guinea","latitude":"1.650801","longitude":"10.267895","aliases":""},{"alpha2":"GR","alpha3":"GRC","code":"300","name":"Greece","standard_name":"Greece","latitude":"39.074208","longitude":"21.824312","aliases":""},{"alpha2":"GS","alpha3":"SGS","code":"239","name":"South Georgia and the South Sandwich Islands","standard_name":"South Georgia and the South Sandwich Islands","latitude":"-54.429579","longitude":"-36.587909","aliases":""},{"alpha2":"GT","alpha3":"GTM","code":"320","name":"Guatemala","standard_name":"Guatemala","latitude":"15.783471","longitude":"-90.230759","aliases":""},{"alpha2":"GU","alpha3":"GUM","code":"316","name":"Guam","standard_name":"Guam","latitude":"13.444304","longitude":"144.793731","aliases":""},{"alpha2":"GW","alpha3":"GNB","code":"624","name":"Guinea-Bissau","standard_name":"Guinea-Bissau","latitude":"11.803749","longitude":"-15.180413","aliases":""},{"alpha2":"GY","alpha3":"GUY","code":"328","name":"Guyana","standard_name":"Guyana","latitude":"4.860416","longitude":"-58.93018","aliases":""},{"alpha2":"GZ","alpha3":"GAZ","code":"274","name":"Gaza Strip","standard_name":"","latitude":"31.354676","longitude":"34.308825","aliases":""},{"alpha2":"HK","alpha3":"HKG","code":"344","name":"Hong Kong","standard_name":"Hong Kong","latitude":"22.396428","longitude":"114.109497","aliases":""},{"alpha2":"HM","alpha3":"HMD","code":"334","name":"Heard Island and McDonald Islands","standard_name":"Heard Island and McDonald Islands","latitude":"-53.08181","longitude":"73.504158","aliases":""},{"alpha2":"HN","alpha3":"HND","code":"340","name":"Honduras","standard_name":"Honduras","latitude":"15.199999","longitude":"-86.241905","aliases":""},{"alpha2":"HR","alpha3":"HRV","code":"191","name":"Croatia","standard_name":"Croatia","latitude":"45.1","longitude":"15.2","aliases":""},{"alpha2":"HT","alpha3":"HTI","code":"332","name":"Haiti","standard_name":"Haiti","latitude":"18.971187","longitude":"-72.285215","aliases":""},{"alpha2":"HU","alpha3":"HUN","code":"348","name":"Hungary","standard_name":"Hungary","latitude":"47.162494","longitude":"19.503304","aliases":""},{"alpha2":"ID","alpha3":"IDN","code":"360","name":"Indonesia","standard_name":"Indonesia","latitude":"-0.789275","longitude":"113.921327","aliases":""},{"alpha2":"IE","alpha3":"IRL","code":"372","name":"Ireland","standard_name":"Ireland","latitude":"53.41291","longitude":"-8.24389","aliases":""},{"alpha2":"IL","alpha3":"ISR","code":"376","name":"Israel","standard_name":"Israel","latitude":"31.046051","longitude":"34.851612","aliases":""},{"alpha2":"IM","alpha3":"IMN","code":"833","name":"Isle of Man","standard_name":"Isle of Man","latitude":"54.236107","longitude":"-4.548056","aliases":""},{"alpha2":"IN","alpha3":"IND","code":"356","name":"India","standard_name":"India","latitude":"20.593684","longitude":"78.96288","aliases":""},{"alpha2":"IO","alpha3":"IOT","code":"86","name":"British Indian Ocean Territory","standard_name":"British Indian Ocean Territory","latitude":"-6.343194","longitude":"71.876519","aliases":""},{"alpha2":"IQ","alpha3":"IRQ","code":"368","name":"Iraq","standard_name":"Iraq","latitude":"33.223191","longitude":"43.679291","aliases":""},{"alpha2":"IR","alpha3":"IRN","code":"364","name":"Iran","standard_name":"Iran (Islamic Republic of)","latitude":"32.427908","longitude":"53.688046","aliases":"Islamic Republic of Iran"},{"alpha2":"IS","alpha3":"ISL","code":"352","name":"Iceland","standard_name":"Iceland","latitude":"64.963051","longitude":"-19.020835","aliases":""},{"alpha2":"IT","alpha3":"ITA","code":"380","name":"Italy","standard_name":"Italy","latitude":"41.87194","longitude":"12.56738","aliases":""},{"alpha2":"JE","alpha3":"JEY","code":"832","name":"Jersey","standard_name":"Jersey","latitude":"49.214439","longitude":"-2.13125","aliases":""},{"alpha2":"JM","alpha3":"JAM","code":"388","name":"Jamaica","standard_name":"Jamaica","latitude":"18.109581","longitude":"-77.297508","aliases":""},{"alpha2":"JO","alpha3":"JOR","code":"400","name":"Jordan","standard_name":"Jordan","latitude":"30.585164","longitude":"36.238414","aliases":""},{"alpha2":"JP","alpha3":"JPN","code":"392","name":"Japan","standard_name":"Japan","latitude":"36.204824","longitude":"138.252924","aliases":""},{"alpha2":"KE","alpha3":"KEN","code":"404","name":"Kenya","standard_name":"Kenya","latitude":"-0.023559","longitude":"37.906193","aliases":""},{"alpha2":"KG","alpha3":"KGZ","code":"417","name":"Kyrgyzstan","standard_name":"Kyrgyzstan","latitude":"41.20438","longitude":"74.766098","aliases":""},{"alpha2":"KH","alpha3":"KHM","code":"116","name":"Cambodia","standard_name":"Cambodia","latitude":"12.565679","longitude":"104.990963","aliases":""},{"alpha2":"KI","alpha3":"KIR","code":"296","name":"Kiribati","standard_name":"Kiribati","latitude":"-3.370417","longitude":"-168.734039","aliases":""},{"alpha2":"KM","alpha3":"COM","code":"174","name":"Comoros","standard_name":"Comoros","latitude":"-11.875001","longitude":"43.872219","aliases":""},{"alpha2":"KN","alpha3":"KNA","code":"659","name":"Saint Kitts and Nevis","standard_name":"Saint Kitts and Nevis","latitude":"17.357822","longitude":"-62.782998","aliases":""},{"alpha2":"KP","alpha3":"PRK","code":"408","name":"North Korea","standard_name":"Korea (the Democratic People's Republic of)","latitude":"40.339852","longitude":"127.510093","aliases":"Democratic People Republic of Korea"},{"alpha2":"KR","alpha3":"KOR","code":"410","name":"South Korea","standard_name":"Korea (the Republic of)","latitude":"35.907757","longitude":"127.766922","aliases":"Republic of Korea"},{"alpha2":"KW","alpha3":"KWT","code":"414","name":"Kuwait","standard_name":"Kuwait","latitude":"29.31166","longitude":"47.481766","aliases":""},{"alpha2":"KY","alpha3":"CYM","code":"136","name":"Cayman Islands","standard_name":"Cayman Islands","latitude":"19.513469","longitude":"-80.566956","aliases":""},{"alpha2":"KZ","alpha3":"KAZ","code":"398","name":"Kazakhstan","standard_name":"Kazakhstan","latitude":"48.019573","longitude":"66.923684","aliases":""},{"alpha2":"LA","alpha3":"LAO","code":"418","name":"Laos","standard_name":"Lao People's Democratic Republic","latitude":"19.85627","longitude":"102.495496","aliases":"Lao People Democratic Republic"},{"alpha2":"LB","alpha3":"LBN","code":"422","name":"Lebanon","standard_name":"Lebanon","latitude":"33.854721","longitude":"35.862285","aliases":""},{"alpha2":"LC","alpha3":"LCA","code":"662","name":"Saint Lucia","standard_name":"Saint Lucia","latitude":"13.909444","longitude":"-60.978893","aliases":""},{"alpha2":"LI","alpha3":"LIE","code":"438","name":"Liechtenstein","standard_name":"Liechtenstein","latitude":"47.166","longitude":"9.555373","aliases":""},{"alpha2":"LK","alpha3":"LKA","code":"144","name":"Sri Lanka","standard_name":"Sri Lanka","latitude":"7.873054","longitude":"80.771797","aliases":""},{"alpha2":"LR","alpha3":"LBR","code":"430","name":"Liberia","standard_name":"Liberia","latitude":"6.428055","longitude":"-9.429499","aliases":""},{"alpha2":"LS","alpha3":"LSO","code":"426","name":"Lesotho","standard_name":"Lesotho","latitude":"-29.609988","longitude":"28.233608","aliases":""},{"alpha2":"LT","alpha3":"LTU","code":"440","name":"Lithuania","standard_name":"Lithuania","latitude":"55.169438","longitude":"23.881275","aliases":""},{"alpha2":"LU","alpha3":"LUX","code":"442","name":"Luxembourg","standard_name":"Luxembourg","latitude":"49.815273","longitude":"6.129583","aliases":""},{"alpha2":"LV","alpha3":"LVA","code":"428","name":"Latvia","standard_name":"Latvia","latitude":"56.879635","longitude":"24.603189","aliases":""},{"alpha2":"LY","alpha3":"LBY","code":"434","name":"Libya","standard_name":"Libya","latitude":"26.3351","longitude":"17.228331","aliases":"Libyan Arab Jamahiriya"},{"alpha2":"MA","alpha3":"MAR","code":"504","name":"Morocco","standard_name":"Morocco","latitude":"31.791702","longitude":"-7.09262","aliases":""},{"alpha2":"MC","alpha3":"MCO","code":"492","name":"Monaco","standard_name":"Monaco","latitude":"43.750298","longitude":"7.412841","aliases":""},{"alpha2":"MD","alpha3":"MDA","code":"498","name":"Moldova","standard_name":"Moldova (the Republic of)","latitude":"47.411631","longitude":"28.369885","aliases":""},{"alpha2":"ME","alpha3":"MNE","code":"499","name":"Montenegro","standard_name":"Montenegro","latitude":"42.708678","longitude":"19.37439","aliases":""},{"alpha2":"MF","alpha3":"MAF","code":"663","name":"Saint Martin","standard_name":"Saint Martin (French part)","latitude":"18.0708294","longitude":"-63.0500793","aliases":""},{"alpha2":"MG","alpha3":"MDG","code":"450","name":"Madagascar","standard_name":"Madagascar","latitude":"-18.766947","longitude":"46.869107","aliases":""},{"alpha2":"MH","alpha3":"MHL","code":"584","name":"Marshall Islands","standard_name":"Marshall Islands","latitude":"7.131474","longitude":"171.184478","aliases":""},{"alpha2":"MK","alpha3":"MKD","code":"807","name":"Macedonia","standard_name":"Republic of North Macedonia","latitude":"41.608635","longitude":"21.745275","aliases":"North Macedonia"},{"alpha2":"ML","alpha3":"MLI","code":"466","name":"Mali","standard_name":"Mali","latitude":"17.570692","longitude":"-3.996166","aliases":""},{"alpha2":"MM","alpha3":"MMR","code":"104","name":"Myanmar","standard_name":"Myanmar","latitude":"21.913965","longitude":"95.956223","aliases":"Burma"},{"alpha2":"MN","alpha3":"MNG","code":"496","name":"Mongolia","standard_name":"Mongolia","latitude":"46.862496","longitude":"103.846656","aliases":""},{"alpha2":"MO","alpha3":"MAC","code":"446","name":"Macau","standard_name":"Macao","latitude":"22.198745","longitude":"113.543873","aliases":""},{"alpha2":"MP","alpha3":"MNP","code":"580","name":"Northern Mariana Islands","standard_name":"Northern Mariana Islands","latitude":"17.33083","longitude":"145.38469","aliases":""},{"alpha2":"MQ","alpha3":"MTQ","code":"474","name":"Martinique","standard_name":"Martinique","latitude":"14.641528","longitude":"-61.024174","aliases":""},{"alpha2":"MR","alpha3":"MRT","code":"478","name":"Mauritania","standard_name":"Mauritania","latitude":"21.00789","longitude":"-10.940835","aliases":""},{"alpha2":"MS","alpha3":"MSR","code":"500","name":"Montserrat","standard_name":"Montserrat","latitude":"16.742498","longitude":"-62.187366","aliases":""},{"alpha2":"MT","alpha3":"MLT","code":"470","name":"Malta","standard_name":"Malta","latitude":"35.937496","longitude":"14.375416","aliases":""},{"alpha2":"MU","alpha3":"MUS","code":"480","name":"Mauritius","standard_name":"Mauritius","latitude":"-20.348404","longitude":"57.552152","aliases":""},{"alpha2":"MV","alpha3":"MDV","code":"462","name":"Maldives","standard_name":"Maldives","latitude":"3.202778","longitude":"73.22068","aliases":""},{"alpha2":"MW","alpha3":"MWI","code":"454","name":"Malawi","standard_name":"Malawi","latitude":"-13.254308","longitude":"34.301525","aliases":""},{"alpha2":"MX","alpha3":"MEX","code":"484","name":"Mexico","standard_name":"Mexico","latitude":"23.634501","longitude":"-102.552784","aliases":""},{"alpha2":"MY","alpha3":"MYS","code":"458","name":"Malaysia","standard_name":"Malaysia","latitude":"4.210484","longitude":"101.975766","aliases":""},{"alpha2":"MZ","alpha3":"MOZ","code":"508","name":"Mozambique","standard_name":"Mozambique","latitude":"-18.665695","longitude":"35.529562","aliases":""},{"alpha2":"NA","alpha3":"NAM","code":"516","name":"Namibia","standard_name":"Namibia","latitude":"-22.95764","longitude":"18.49041","aliases":""},{"alpha2":"NC","alpha3":"NCL","code":"540","name":"New Caledonia","standard_name":"New Caledonia","latitude":"-20.904305","longitude":"165.618042","aliases":""},{"alpha2":"NE","alpha3":"NER","code":"562","name":"Niger","standard_name":"Niger","latitude":"17.607789","longitude":"8.081666","aliases":""},{"alpha2":"NF","alpha3":"NFK","code":"574","name":"Norfolk Island","standard_name":"Norfolk Island","latitude":"-29.040835","longitude":"167.954712","aliases":""},{"alpha2":"NG","alpha3":"NGA","code":"566","name":"Nigeria","standard_name":"Nigeria","latitude":"9.081999","longitude":"8.675277","aliases":""},{"alpha2":"NI","alpha3":"NIC","code":"558","name":"Nicaragua","standard_name":"Nicaragua","latitude":"12.865416","longitude":"-85.207229","aliases":""},{"alpha2":"NL","alpha3":"NLD","code":"528","name":"Netherlands","standard_name":"Netherlands","latitude":"52.132633","longitude":"5.291266","aliases":""},{"alpha2":"NO","alpha3":"NOR","code":"578","name":"Norway","standard_name":"Norway","latitude":"60.472024","longitude":"8.468946","aliases":""},{"alpha2":"NP","alpha3":"NPL","code":"524","name":"Nepal","standard_name":"Nepal","latitude":"28.394857","longitude":"84.124008","aliases":""},{"alpha2":"NR","alpha3":"NRU","code":"520","name":"Nauru","standard_name":"Nauru","latitude":"-0.522778","longitude":"166.931503","aliases":""},{"alpha2":"NU","alpha3":"NIU","code":"570","name":"Niue","standard_name":"Niue","latitude":"-19.054445","longitude":"-169.867233","aliases":""},{"alpha2":"NZ","alpha3":"NZL","code":"554","name":"New Zealand","standard_name":"New Zealand","latitude":"-40.900557","longitude":"174.885971","aliases":""},{"alpha2":"OM","alpha3":"OMN","code":"512","name":"Oman","standard_name":"Oman","latitude":"21.512583","longitude":"55.923255","aliases":""},{"alpha2":"PA","alpha3":"PAN","code":"591","name":"Panama","standard_name":"Panama","latitude":"8.537981","longitude":"-80.782127","aliases":""},{"alpha2":"PE","alpha3":"PER","code":"604","name":"Peru","standard_name":"Peru","latitude":"-9.189967","longitude":"-75.015152","aliases":""},{"alpha2":"PF","alpha3":"PYF","code":"258","name":"French Polynesia","standard_name":"French Polynesia","latitude":"-17.679742","longitude":"-149.406843","aliases":""},{"alpha2":"PG","alpha3":"PNG","code":"598","name":"Papua New Guinea","standard_name":"Papua New Guinea","latitude":"-6.314993","longitude":"143.95555","aliases":""},{"alpha2":"PH","alpha3":"PHL","code":"608","name":"Philippines","standard_name":"Philippines","latitude":"12.879721","longitude":"121.774017","aliases":""},{"alpha2":"PK","alpha3":"PAK","code":"586","name":"Pakistan","standard_name":"Pakistan","latitude":"30.375321","longitude":"69.345116","aliases":""},{"alpha2":"PL","alpha3":"POL","code":"616","name":"Poland","standard_name":"Poland","latitude":"51.919438","longitude":"19.145136","aliases":""},{"alpha2":"PM","alpha3":"SPM","code":"666","name":"Saint Pierre and Miquelon","standard_name":"Saint Pierre and Miquelon","latitude":"46.941936","longitude":"-56.27111","aliases":""},{"alpha2":"PN","alpha3":"PCN","code":"612","name":"Pitcairn Islands","standard_name":"Pitcairn","latitude":"-24.703615","longitude":"-127.439308","aliases":""},{"alpha2":"PR","alpha3":"PRI","code":"630","name":"Puerto Rico","standard_name":"Puerto Rico","latitude":"18.220833","longitude":"-66.590149","aliases":""},{"alpha2":"PS","alpha3":"PSE","code":"275","name":"Palestinian Territories","standard_name":"Palestine, State of","latitude":"31.952162","longitude":"35.233154","aliases":"State of Palestine;Palestinian;West Bank and Gaza"},{"alpha2":"PT","alpha3":"PRT","code":"620","name":"Portugal","standard_name":"Portugal","latitude":"39.399872","longitude":"-8.224454","aliases":""},{"alpha2":"PW","alpha3":"PLW","code":"585","name":"Palau","standard_name":"Palau","latitude":"7.51498","longitude":"134.58252","aliases":""},{"alpha2":"PY","alpha3":"PRY","code":"600","name":"Paraguay","standard_name":"Paraguay","latitude":"-23.442503","longitude":"-58.443832","aliases":""},{"alpha2":"QA","alpha3":"QAT","code":"634","name":"Qatar","standard_name":"Qatar","latitude":"25.354826","longitude":"51.183884","aliases":""},{"alpha2":"RE","alpha3":"REU","code":"638","name":"Reunion","standard_name":"Réunion","latitude":"-21.115141","longitude":"55.536384","aliases":""},{"alpha2":"RO","alpha3":"ROU","code":"642","name":"Romania","standard_name":"Romania","latitude":"45.943161","longitude":"24.96676","aliases":""},{"alpha2":"RS","alpha3":"SRB","code":"688","name":"Serbia","standard_name":"Serbia","latitude":"44.016521","longitude":"21.005859","aliases":""},{"alpha2":"RU","alpha3":"RUS","code":"643","name":"Russia","standard_name":"Russian Federation","latitude":"61.52401","longitude":"105.318756","aliases":""},{"alpha2":"RW","alpha3":"RWA","code":"646","name":"Rwanda","standard_name":"Rwanda","latitude":"-1.940278","longitude":"29.873888","aliases":""},{"alpha2":"SA","alpha3":"SAU","code":"682","name":"Saudi Arabia","standard_name":"Saudi Arabia","latitude":"23.885942","longitude":"45.079162","aliases":""},{"alpha2":"SB","alpha3":"SLB","code":"90","name":"Solomon Islands","standard_name":"Solomon Islands","latitude":"-9.64571","longitude":"160.156194","aliases":""},{"alpha2":"SC","alpha3":"SYC","code":"690","name":"Seychelles","standard_name":"Seychelles","latitude":"-4.679574","longitude":"55.491977","aliases":""},{"alpha2":"SD","alpha3":"SDN","code":"729","name":"Sudan","standard_name":"Sudan","latitude":"12.862807","longitude":"30.217636","aliases":""},{"alpha2":"SE","alpha3":"SWE","code":"752","name":"Sweden","standard_name":"Sweden","latitude":"60.128161","longitude":"18.643501","aliases":""},{"alpha2":"SG","alpha3":"SGP","code":"702","name":"Singapore","standard_name":"Singapore","latitude":"1.352083","longitude":"103.819836","aliases":""},{"alpha2":"SH","alpha3":"SHN","code":"654","name":"Saint Helena","standard_name":"Saint Helena, Ascension and Tristan da Cunha","latitude":"-24.143474","longitude":"-10.030696","aliases":""},{"alpha2":"SI","alpha3":"SVN","code":"705","name":"Slovenia","standard_name":"Slovenia","latitude":"46.151241","longitude":"14.995463","aliases":""},{"alpha2":"SJ","alpha3":"SJM","code":"744","name":"Svalbard and Jan Mayen","standard_name":"Svalbard and Jan Mayen","latitude":"77.553604","longitude":"23.670272","aliases":""},{"alpha2":"SK","alpha3":"SVK","code":"703","name":"Slovakia","standard_name":"Slovakia","latitude":"48.669026","longitude":"19.699024","aliases":""},{"alpha2":"SL","alpha3":"SLE","code":"694","name":"Sierra Leone","standard_name":"Sierra Leone","latitude":"8.460555","longitude":"-11.779889","aliases":""},{"alpha2":"SM","alpha3":"SMR","code":"674","name":"San Marino","standard_name":"San Marino","latitude":"43.94236","longitude":"12.457777","aliases":""},{"alpha2":"SN","alpha3":"SEN","code":"686","name":"Senegal","standard_name":"Senegal","latitude":"14.497401","longitude":"-14.452362","aliases":""},{"alpha2":"SO","alpha3":"SOM","code":"706","name":"Somalia","standard_name":"Somalia","latitude":"5.152149","longitude":"46.199616","aliases":""},{"alpha2":"SR","alpha3":"SUR","code":"740","name":"Suriname","standard_name":"Suriname","latitude":"3.919305","longitude":"-56.027783","aliases":""},{"alpha2":"SS","alpha3":"SSD","code":"728","name":"South Sudan","standard_name":"South Sudan","latitude":"7.8626845","longitude":"29.6949232","aliases":""},{"alpha2":"ST","alpha3":"STP","code":"678","name":"Sao Tome And Principe","standard_name":"Sao Tome and Principe","latitude":"0.18636","longitude":"6.613081","aliases":"São Tomé and Príncipe"},{"alpha2":"SV","alpha3":"SLV","code":"222","name":"El Salvador","standard_name":"El Salvador","latitude":"13.794185","longitude":"-88.89653","aliases":""},{"alpha2":"SX","alpha3":"SXM","code":"534","name":"Sint Maarten","standard_name":"Sint Maarten (Dutch part)","latitude":"18.0424805","longitude":"-63.0548286","aliases":""},{"alpha2":"SY","alpha3":"SYR","code":"760","name":"Syria","standard_name":"Syrian Arab Republic","latitude":"34.802075","longitude":"38.996815","aliases":""},{"alpha2":"SZ","alpha3":"SWZ","code":"748","name":"Swaziland","standard_name":"Eswatini","latitude":"-26.522503","longitude":"31.465866","aliases":"Kingdom of Eswatini"},{"alpha2":"TC","alpha3":"TCA","code":"796","name":"Turks and Caicos Islands","standard_name":"Turks and Caicos Islands","latitude":"21.694025","longitude":"-71.797928","aliases":""},{"alpha2":"TD","alpha3":"TCD","code":"148","name":"Chad","standard_name":"Chad","latitude":"15.454166","longitude":"18.732207","aliases":""},{"alpha2":"TF","alpha3":"ATF","code":"260","name":"French Southern Territories","standard_name":"French Southern Territories","latitude":"-49.280366","longitude":"69.348557","aliases":""},{"alpha2":"TG","alpha3":"TGO","code":"768","name":"Togo","standard_name":"Togo","latitude":"8.619543","longitude":"0.824782","aliases":""},{"alpha2":"TH","alpha3":"THA","code":"764","name":"Thailand","standard_name":"Thailand","latitude":"15.870032","longitude":"100.992541","aliases":""},{"alpha2":"TJ","alpha3":"TJK","code":"762","name":"Tajikistan","standard_name":"Tajikistan","latitude":"38.861034","longitude":"71.276093","aliases":""},{"alpha2":"TK","alpha3":"TKL","code":"772","name":"Tokelau","standard_name":"Tokelau","latitude":"-8.967363","longitude":"-171.855881","aliases":""},{"alpha2":"TL","alpha3":"TLS","code":"626","name":"Timor-Leste","standard_name":"Timor-Leste","latitude":"-8.874217","longitude":"125.727539","aliases":"East Timor"},{"alpha2":"TM","alpha3":"TKM","code":"795","name":"Turkmenistan","standard_name":"Turkmenistan","latitude":"38.969719","longitude":"59.556278","aliases":""},{"alpha2":"TN","alpha3":"TUN","code":"788","name":"Tunisia","standard_name":"Tunisia","latitude":"33.886917","longitude":"9.537499","aliases":""},{"alpha2":"TO","alpha3":"TON","code":"776","name":"Tonga","standard_name":"Tonga","latitude":"-21.178986","longitude":"-175.198242","aliases":""},{"alpha2":"TR","alpha3":"TUR","code":"792","name":"Turkey","standard_name":"Turkey","latitude":"38.963745","longitude":"35.243322","aliases":""},{"alpha2":"TT","alpha3":"TTO","code":"780","name":"Trinidad and Tobago","standard_name":"Trinidad and Tobago","latitude":"10.691803","longitude":"-61.222503","aliases":""},{"alpha2":"TV","alpha3":"TUV","code":"798","name":"Tuvalu","standard_name":"Tuvalu","latitude":"-7.109535","longitude":"177.64933","aliases":""},{"alpha2":"TW","alpha3":"TWN","code":"158","name":"Taiwan","standard_name":"Taiwan (Province of China)","latitude":"23.69781","longitude":"120.960515","aliases":""},{"alpha2":"TZ","alpha3":"TZA","code":"834","name":"Tanzania","standard_name":"Tanzania, United Republic of","latitude":"-6.369028","longitude":"34.888822","aliases":"United Republic of Tanzania"},{"alpha2":"UA","alpha3":"UKR","code":"804","name":"Ukraine","standard_name":"Ukraine","latitude":"48.379433","longitude":"31.16558","aliases":""},{"alpha2":"UG","alpha3":"UGA","code":"800","name":"Uganda","standard_name":"Uganda","latitude":"1.373333","longitude":"32.290275","aliases":""},{"alpha2":"UM","alpha3":"UMI","code":"581","name":"United States Minor Outlying Islands","standard_name":"United States Minor Outlying Islands","latitude":"19.295374","longitude":"166.6280441","aliases":"U.S. Minor Outlying Islands"},{"alpha2":"US","alpha3":"USA","code":"840","name":"United States","standard_name":"United States of America","latitude":"37.09024","longitude":"-95.712891","aliases":""},{"alpha2":"UY","alpha3":"URY","code":"858","name":"Uruguay","standard_name":"Uruguay","latitude":"-32.522779","longitude":"-55.765835","aliases":""},{"alpha2":"UZ","alpha3":"UZB","code":"860","name":"Uzbekistan","standard_name":"Uzbekistan","latitude":"41.377491","longitude":"64.585262","aliases":""},{"alpha2":"VA","alpha3":"VAT","code":"336","name":"Vatican City State","standard_name":"Holy See","latitude":"41.902916","longitude":"12.453389","aliases":"Vatican City"},{"alpha2":"VC","alpha3":"VCT","code":"670","name":"Saint Vincent and the Grenadines","standard_name":"Saint Vincent and the Grenadines","latitude":"12.984305","longitude":"-61.287228","aliases":""},{"alpha2":"VE","alpha3":"VEN","code":"862","name":"Venezuela","standard_name":"Venezuela (Bolivarian Republic of)","latitude":"6.42375","longitude":"-66.58973","aliases":""},{"alpha2":"VG","alpha3":"VGB","code":"92","name":"British Virgin Islands","standard_name":"Virgin Islands (British)","latitude":"18.420695","longitude":"-64.639968","aliases":""},{"alpha2":"VI","alpha3":"VIR","code":"850","name":"United States Virgin Islands","standard_name":"Virgin Islands (U.S.)","latitude":"18.335765","longitude":"-64.896335","aliases":"U.S. Virgin Islands"},{"alpha2":"VN","alpha3":"VNM","code":"704","name":"Vietnam","standard_name":"Viet Nam","latitude":"14.058324","longitude":"108.277199","aliases":"Việt Nam"},{"alpha2":"VU","alpha3":"VUT","code":"548","name":"Vanuatu","standard_name":"Vanuatu","latitude":"-15.376706","longitude":"166.959158","aliases":""},{"alpha2":"WF","alpha3":"WLF","code":"876","name":"Wallis and Futuna Islands","standard_name":"Wallis and Futuna","latitude":"-13.768752","longitude":"-177.156097","aliases":""},{"alpha2":"WS","alpha3":"WSM","code":"882","name":"Samoa","standard_name":"Samoa","latitude":"-13.759029","longitude":"-172.104629","aliases":""},{"alpha2":"XK","alpha3":"XKX","code":"","name":"Kosovo","standard_name":"","latitude":"42.602636","longitude":"20.902977","aliases":""},{"alpha2":"YE","alpha3":"YEM","code":"887","name":"Yemen","standard_name":"Yemen","latitude":"15.552727","longitude":"48.516388","aliases":""},{"alpha2":"YT","alpha3":"MYT","code":"175","name":"Mayotte","standard_name":"Mayotte","latitude":"-12.8275","longitude":"45.166244","aliases":""},{"alpha2":"ZA","alpha3":"ZAF","code":"710","name":"South Africa","standard_name":"South Africa","latitude":"-30.559482","longitude":"22.937506","aliases":""},{"alpha2":"ZM","alpha3":"ZMB","code":"894","name":"Zambia","standard_name":"Zambia","latitude":"-13.133897","longitude":"27.849332","aliases":""},{"alpha2":"ZW","alpha3":"ZWE","code":"716","name":"Zimbabwe","standard_name":"Zimbabwe","latitude":"-19.015438","longitude":"29.154857","aliases":""}]
